timestamp,actiondata,latitude,longitude,roll,pitch,yaw,angular_velx,angular_vely,angular_velz
436000000,"[0.0, 0.0, 0.0, 0.0]",-33.722692717346966,150.6740531815632,-0.0020932268985085567,0.03237099712212887,0.3959335622818596,0.00625,0.014750000000000001,0.00525
460000000,"[0.0, 0.0, 0.0, 0.0]",-33.72269272080354,150.6740531745607,-0.002046727158201166,0.03265297403210817,0.3959324618118078,0.01125,-0.00575,0.00275
500000000,"[0.0, 0.0, 0.0, 0.0]",-33.72269271437502,150.67405318766671,-0.0020262064551493726,0.03277029971373267,0.39593200246319893,0.01125,0.025750000000000002,0.00925
508000000,"[0.0, 0.0, 0.0, 0.0]",-33.72269271139871,150.67405319385745,-0.0020123326753763533,0.03284732111280234,0.39593170027987024,0.00775,0.010750000000000001,-0.001
532000000,"[0.0, 0.0, 0.0, 0.0]",-33.72269270888089,150.6740531991572,-0.0018807949538020186,0.03349603526436914,0.39592912304545785,0.00275,0.0145,0.01225
568000000,"[0.0, 0.0, 0.0, 0.0]",-33.72269270640662,150.67405320442285,-0.0017868264754904856,0.033882167827016384,0.39592754227022353,-0.007,0.0,0.00375
604000000,"[0.0, 0.0, 0.0, 0.0]",-33.722692704359986,150.67405320882278,-0.0017626006601546315,0.033972684567599665,0.39592716355724683,0.0205,0.016,0.01125
664000000,"[0.0, 0.0, 0.0, 0.0]",-33.72269270240273,150.67405321306896,-0.0016373430660062583,0.034388081955364455,0.39592536482683727,0.00475,0.006500000000000001,0.0075
708000000,"[0.0, 0.0, 0.0, 0.0]",-33.72269270083761,150.6740532164914,-0.0015057030413787467,0.03473974276066409,0.3959237162734148,0.00675,0.01975,0.0045000000000000005
760000000,"[0.0, 0.0, 0.0, 0.0]",-33.722692699404405,150.67405321964463,-0.0013496612597700566,0.035058677603558665,0.3959220149850769,0.01025,0.003,0.003
808000000,"[0.0, 0.0, 0.0, 0.0]",-33.722692698323044,150.67405322203192,-0.0013214419038586585,0.03510600798247779,0.395921731916789,-0.00025,-0.0025,0.01125
856000000,"[0.0, 0.0, 0.0, 0.0]",-33.7226926974114,150.67405322404096,-0.0011776163478784134,0.0353017857707789,0.39592038770213417,0.00575,-0.014750000000000001,0.0035
904000000,"[0.0, 0.0, 0.0, 0.0]",-33.72269269680692,150.67405322535632,-0.0010596497068821936,0.03540893237897831,0.39591939107528734,0.00825,-0.00775,0.00375
960000000,"[0.0, 0.0, 0.0, 0.0]",-33.7226926964045,150.67405322619322,-0.0009294472638856451,0.03547503022041626,0.39591838120302036,-0.012,-0.00675,0.0
24000000,"[0.0, 0.0, 0.0, 0.0]",-33.72269269626121,150.67405322642202,-0.0008074882968123937,0.035489841768852545,0.3959175053675778,-0.0025,0.00875,0.0165
244000000,"[0.0, 0.0, 0.0, 0.0]",-33.72269269718555,150.6740532237406,-5.296893636293569e-05,0.034647226701210995,0.39591290851731525,0.0032500000000000003,0.0022500000000000003,0.022
304000000,"[0.0, 0.0, 0.0, 0.0]",-33.72269269788778,150.67405322184382,-3.2476439612439766e-05,0.03460259075932403,0.39591279158636544,0.003,0.01575,-0.0032500000000000003
352000000,"[0.0, 0.0, 0.0, 0.0]",-33.72269269885495,150.6740532192414,4.9167260967406856e-05,0.03441328806869089,0.3959123246833581,0.00625,-0.00375,0.019
404000000,"[0.0, 0.0, 0.0, 0.0]",-33.72269269992857,150.67405321634885,0.00017047735102481717,0.034097806075197905,0.3959116239709903,0.00975,-0.006,0.0135
708000000,"[0.0, 0.0, 0.0, 0.0]",-33.72269270991139,150.67405318876342,0.001002997732376378,0.030700269290689648,0.3959059034359314,-0.00525,-0.01025,0.00575
752000000,"[0.0, 0.0, 0.0, 0.0]",-33.72269271208735,150.67405318256124,0.001027508687422468,0.030561560590059277,0.39590568876313176,0.00925,-0.00375,0.0025
792000000,"[0.0, 0.0, 0.0, 0.0]",-33.72269271417705,150.67405317653808,0.001083705274943418,0.030233101009536058,0.395905180381981,-0.006500000000000001,-0.023,-0.01025
856000000,"[0.0, 0.0, 0.0, 0.0]",-33.72269271651352,150.67405316972446,0.0011842462752165786,0.029606733164635975,0.39590420798984993,0.004,-0.0022500000000000003,0.006
904000000,"[0.0, 0.0, 0.0, 0.0]",-33.722692718723444,150.67405316320045,0.0012580652679269352,0.029112170933740827,0.39590343465925837,0.002,0.009000000000000001,-0.0145
916000000,"[0.0, 0.0, 0.0, 0.0]",-33.72269272115959,150.67405315591532,0.0013424349288818516,0.02850645713436037,0.3959024774502379,0.00275,-0.00175,0.02075
932000000,"[0.0, 0.0, 0.0, 0.0]",-33.72269272343309,150.67405314902336,0.0014284497542703895,0.02783819871867502,0.39590140476807945,0.0105,-0.021750000000000002,-0.00075
984000000,"[0.0, 0.0, 0.0, 0.0]",-33.72269272590716,150.67405314141385,0.0014411721343123342,0.02773449203794908,0.3959012365175838,0.0115,-0.0155,0.01425
208000000,"[0.0, 0.0, 0.0, 0.0]",-33.72269273286726,150.67405311929775,0.0018056144339335272,0.023916071783128042,0.39589473825156624,-0.0022500000000000003,-0.0105,0.01225
248000000,"[0.0, 0.0, 0.0, 0.0]",-33.72269273523364,150.6740531114937,0.0018127396078820345,0.023813676264325363,0.39589455715933075,0.01225,-0.008,0.01375
304000000,"[0.0, 0.0, 0.0, 0.0]",-33.72269273735948,150.67405310433173,0.001823133435558623,0.023660616780287493,0.3958942859573822,0.0015,0.002,0.010750000000000001
348000000,"[500.0, 500.0, 500.0, 500.0]",-33.72269272633222,150.67405312619877,0.001564415672764252,0.02234623152210878,0.39589239990657454,0.013000000000000001,-0.0385,0.00125
404000000,"[500.0, 500.0, 500.0, 500.0]",-33.722692686908786,150.67405322967733,0.001322583547584766,0.019043997351573944,0.3958877313979389,-0.0115,-0.08750000000000001,0.0045000000000000005
452000000,"[500.0, 500.0, 500.0, 500.0]",-33.722692612712876,150.6740534373833,0.001261337993216163,0.013033220218602936,0.3958796671265468,0.00125,-0.09925,0.01
480000000,"[500.0, 500.0, 500.0, 500.0]",-33.722692514163974,150.67405372081234,0.0014875022824745372,0.0061635210419254205,0.39586933261040397,0.01225,-0.106,0.0085
504000000,"[500.0, 500.0, 500.0, 500.0]",-33.72269237324219,150.67405413041567,0.0016940242476923453,0.0026259674301266915,0.39585549780091706,0.0025,-0.11275,-0.00875
548000000,"[500.0, 500.0, 500.0, 500.0]",-33.722692210256405,150.67405460451832,0.002044183996360748,-0.0020073861687162392,0.3958299978812061,-0.0022500000000000003,-0.0795,0.01325
588000000,"[500.0, 500.0, 500.0, 500.0]",-33.72269199718522,150.67405522119083,0.0023747961195290956,-0.005635041102574315,0.3957962230786429,0.011,-0.05725,0.0015
720000000,"[500.0, 500.0, 500.0, 500.0]",-33.72269176705468,150.67405588232185,0.002540566474302592,-0.007563542598768993,0.39571664924034544,-0.01875,0.0225,-0.00025
748000000,"[500.0, 500.0, 500.0, 500.0]",-33.72269148313326,150.67405669206735,0.0025219568582830966,-0.007432493240469951,0.3957095810392787,-0.0005,0.01375,0.00425
792000000,"[500.0, 500.0, 500.0, 500.0]",-33.72269119171976,150.67405751869632,0.002369441732320104,-0.006223797549033249,0.3956727722635366,-0.00975,0.055,0.02075
848000000,"[500.0, 500.0, 500.0, 500.0]",-33.72269084816044,150.67405849068624,0.002145921992001992,-0.004225087396566354,0.3956334888331449,0.01625,0.051500000000000004,0.016
904000000,"[500.0, 500.0, 500.0, 500.0]",-33.72269050931581,150.6740594495386,0.0017159766132911049,0.0006912281081609254,0.3955565295144617,-0.0085,0.0845,-0.0005
936000000,"[500.0, 500.0, 500.0, 500.0]",-33.72269012319395,150.67406054501086,0.001520308481286335,0.004380294919711383,0.395501140342123,0.0135,0.07375,-0.00575
940000000,"[500.0, 500.0, 500.0, 500.0]",-33.72268975285703,150.6740615998495,0.0014913471637003452,0.005301734330907026,0.395486859723974,0.0022500000000000003,0.07375,0.0022500000000000003
0,"[500.0, 500.0, 500.0, 500.0]",-33.7226893399387,150.67406278081123,0.001463235850935259,0.006811144493313726,0.3954627151672443,-0.00775,0.08425,-0.0005
20000000,"[500.0, 500.0, 500.0, 500.0]",-33.7226889502279,150.67406389885915,0.0016270611627537993,0.012580445491211128,0.39535215497760123,0.00625,0.055,0.01675
56000000,"[500.0, 500.0, 500.0, 500.0]",-33.72268852050387,150.67406513322328,0.0017713900935826276,0.014141735755002586,0.39531026760225424,0.006500000000000001,0.048,0.0015
104000000,"[500.0, 500.0, 500.0, 500.0]",-33.722688117891735,150.67406628873727,0.0019103559361233913,0.015210768737607367,0.3952727592139508,-0.00675,0.035,0.0105
156000000,"[500.0, 500.0, 500.0, 500.0]",-33.72268767605213,150.67406755355705,0.00209761538203856,0.016217718892042172,0.3952175252433917,-0.01,0.01525,0.02675
204000000,"[500.0, 500.0, 500.0, 500.0]",-33.72268726349269,150.67406873050749,0.002212970442705365,0.01656691623645274,0.3951717105870814,-0.00575,-0.00275,0.00275
272000000,"[500.0, 500.0, 500.0, 500.0]",-33.722686811972906,150.67407001445034,0.0022904010653895957,0.016146556486276945,0.39508140540007924,-0.0015,-0.027,0.00875
304000000,"[500.0, 500.0, 500.0, 500.0]",-33.72268639136156,150.6740712079799,0.0021610866723932153,0.014474802653250504,0.39498531174054513,-0.004,-0.03675,0.01175
368000000,"[500.0, 500.0, 500.0, 500.0]",-33.72268593186889,150.67407251127068,0.0019813426720934526,0.012821879672672473,0.3949184052516628,-0.015,-0.03975,-0.0075
404000000,"[500.0, 500.0, 500.0, 500.0]",-33.72268550426504,150.67407372555357,0.0017624517040167947,0.010889946632568776,0.39484962969578097,-0.00675,-0.044,-0.002
460000000,"[500.0, 500.0, 500.0, 500.0]",-33.722685037095886,150.67407505530963,0.0014435010357924398,0.007805209927565739,0.3947436169772148,-0.00375,-0.047,0.0145
516000000,"[500.0, 500.0, 500.0, 500.0]",-33.72268460184446,150.67407629754084,0.0012192026183887143,0.004649355605668585,0.3946198935110352,0.0015,-0.0395,0.02375
596000000,"[500.0, 500.0, 500.0, 500.0]",-33.722684125412634,150.67407766024394,0.0012158423610283504,0.002452849553581231,0.3944848510820567,0.009000000000000001,-0.03,0.00675
608000000,"[500.0, 500.0, 500.0, 500.0]",-33.72268368066241,150.6740789336317,0.0012704189333147039,0.0020432111102116584,0.39443122467864444,-0.010750000000000001,-0.001,0.002
668000000,"[500.0, 500.0, 500.0, 500.0]",-33.722683193285256,150.67408032853123,0.001412962502787956,0.0020178590351413507,0.39433011522489897,-0.0025,-0.00425,0.0025
712000000,"[500.0, 500.0, 500.0, 500.0]",-33.72268273853334,150.67408162803693,0.0014910748871440375,0.002393886205302473,0.3942749294306512,0.00725,0.017750000000000002,0.00825
796000000,"[500.0, 500.0, 500.0, 500.0]",-33.72268224146979,150.6740830453348,0.0016007798024037332,0.003998915358638204,0.39415511264586445,-0.01825,0.03075,0.0045000000000000005
812000000,"[500.0, 500.0, 500.0, 500.0]",-33.72268177976521,150.6740843589966,0.0015859289732629747,0.006034952312389543,0.3940496151520093,0.0005,0.021,0.00025
864000000,"[500.0, 500.0, 500.0, 500.0]",-33.72268127808136,150.67408578434063,0.0014943721329001218,0.007803230952780923,0.3939673901410309,0.00675,0.02375,0.0022500000000000003
904000000,"[500.0, 500.0, 500.0, 500.0]",-33.72268081505523,150.67408709932795,0.0013433648946796467,0.009580034888628065,0.39388422185292465,-0.004,0.047,-0.01
964000000,"[500.0, 500.0, 500.0, 500.0]",-33.72268031485967,150.67408852090605,0.0010541595326079153,0.01195566453469193,0.39375785002014874,-0.00675,0.035250000000000004,0.01875
96000000,"[500.0, 500.0, 500.0, 500.0]",-33.72267985521363,150.6740898292534,0.0005256975727282446,0.014257099101510885,0.39332893014997883,0.0015,-0.009000000000000001,0.00725
148000000,"[500.0, 500.0, 500.0, 500.0]",-33.72267935975679,150.67409124213864,0.0005305622280629194,0.014160404515031087,0.39331165073165353,0.0055,0.00825,0.004
204000000,"[500.0, 500.0, 500.0, 500.0]",-33.72267890440542,150.67409254267366,0.0005485647301061156,0.01387185789020489,0.3932684114189394,0.01375,-0.005,0.0005
248000000,"[500.0, 500.0, 500.0, 500.0]",-33.72267841247076,150.67409394875952,0.0006159854355079172,0.0128767234882497,0.39315549602385363,-0.01025,-0.03925,0.0025
304000000,"[500.0, 500.0, 500.0, 500.0]",-33.722677958710435,150.67409524542683,0.0006734918729811449,0.011501828456294475,0.39302405447552113,0.01325,-0.01575,0.009000000000000001
308000000,"[500.0, 500.0, 500.0, 500.0]",-33.72267746648886,150.6740966503985,0.0006659986071186662,0.01059254676058976,0.3929356582353808,-0.00575,0.005,0.01875
324000000,"[500.0, 500.0, 500.0, 500.0]",-33.72267701083083,150.67409794888835,0.0005896701827091121,0.009635268420820456,0.39282882369711924,-0.0205,0.0015,0.021
360000000,"[500.0, 500.0, 500.0, 500.0]",-33.72267651536313,150.67409935858706,0.0004979998968813215,0.009126401994203514,0.39275721134459257,-0.008,-0.024,0.0165
404000000,"[500.0, 500.0, 500.0, 500.0]",-33.72267605625287,150.67410066346886,0.0003955253782729734,0.008786766853898242,0.3926943495040758,0.009000000000000001,-0.0225,-0.006
460000000,"[500.0, 500.0, 500.0, 500.0]",-33.72267555720358,150.67410208158614,0.00022516688755072864,0.008492029019440121,0.3926043097795912,-0.0005,-0.01,0.0185
504000000,"[500.0, 500.0, 500.0, 500.0]",-33.72267509533455,150.67410339492835,0.00017125535357483191,0.008449323570473288,0.3925772594980124,0.01325,-0.0185,0.01575
556000000,"[500.0, 500.0, 500.0, 500.0]",-33.722674594073084,150.6741048221718,-0.00016622562318335295,0.00870473596180452,0.39239675058975243,-0.0032500000000000003,0.01375,0.006
620000000,"[500.0, 500.0, 500.0, 500.0]",-33.72267413083297,150.6741061432134,-0.0002905965266089809,0.009161952445893873,0.39230649855537386,0.00925,0.012,0.00125
656000000,"[500.0, 500.0, 500.0, 500.0]",-33.72267362861761,150.6741075773162,-0.00035161823526457165,0.00959450027963607,0.3922435031487104,0.006,0.00625,0.01125
704000000,"[500.0, 500.0, 500.0, 500.0]",-33.722673164786784,150.6741089028099,-0.0004115019122532695,0.011035827571125336,0.3920821255166115,-0.00675,0.01725,0.008
756000000,"[500.0, 500.0, 500.0, 500.0]",-33.7226726620994,150.67411033932174,-0.00039021869782165735,0.012453237664472117,0.3919484074363362,-0.0095,0.025,0.01
216000000,"[500.0, 500.0, 500.0, 500.0]",-33.72266930797396,150.67411989818257,-0.0013242320381384137,0.015959691082770965,0.3908543563913449,0.009000000000000001,0.005,0.0235
252000000,"[500.0, 500.0, 500.0, 500.0]",-33.722668810487995,150.67412131814368,-0.0013247296459700164,0.015905263827936965,0.39083736198901436,0.007,0.00075,0.0
304000000,"[500.0, 500.0, 500.0, 500.0]",-33.72266835172358,150.67412262904938,-0.0013241573055348347,0.015828930025980813,0.39081190253414283,0.0145,-0.00075,0.016
348000000,"[500.0, 500.0, 500.0, 500.0]",-33.72266785466621,150.674124050373,-0.001315341525133824,0.015634103928455857,0.39072728903792786,0.008,-0.00725,0.011
384000000,"[500.0, 500.0, 500.0, 500.0]",-33.72266739528984,150.67412536414886,-0.0013070659107626554,0.015572778117918525,0.39060097536431354,0.00525,-0.008,0.004
416000000,"[500.0, 500.0, 500.0, 500.0]",-33.722666896604,150.6741267898186,-0.0013229492888803907,0.01571684484332693,0.3905170981469105,-0.0035,0.008,0.00275
496000000,"[500.0, 500.0, 500.0, 500.0]",-33.722666435141285,150.67412810817595,-0.0014107978648244053,0.016309754751648,0.3903750726351206,0.01,0.028,0.003
556000000,"[500.0, 500.0, 500.0, 500.0]",-33.722665934041316,150.67412953876575,-0.0016316962479159564,0.017667887032149894,0.3901843531335816,-0.00825,0.021750000000000002,-0.012
644000000,"[500.0, 500.0, 500.0, 500.0]",-33.722665470654384,150.67413086109596,-0.0018070258692880474,0.018872957348853726,0.3900449943377055,-0.00425,0.02475,-0.0032500000000000003
704000000,"[500.0, 500.0, 500.0, 500.0]",-33.7226649681958,150.67413229492976,-0.001920419829972504,0.0199174694208494,0.38992361275413157,0.0015,0.01625,-0.002
768000000,"[500.0, 500.0, 500.0, 500.0]",-33.7226645044145,150.67413361904147,-0.001962773097950876,0.02054960702397691,0.38984363791346216,-0.009000000000000001,0.0032500000000000003,-0.00775
816000000,"[500.0, 500.0, 500.0, 500.0]",-33.722663539802504,150.6741363768385,-0.0019632493589916127,0.021766159322182736,0.3896469758889396,0.011,-0.003,0.008
888000000,"[500.0, 500.0, 500.0, 500.0]",-33.72266257838572,150.67413913043507,-0.0019261858279671672,0.022282627390150953,0.3895077404384573,-0.00675,-0.0075,0.015
948000000,"[500.0, 500.0, 500.0, 500.0]",-33.72266207952139,150.6741405600064,-0.0019184896072796122,0.02251165137838178,0.3893927135528578,-0.004,0.0135,-0.001
968000000,"[500.0, 500.0, 500.0, 500.0]",-33.72266161942594,150.67414187823402,-0.0019204533583441876,0.022530986764779253,0.38937742843125955,0.00425,-0.0035,-0.00575
44000000,"[500.0, 500.0, 500.0, 500.0]",-33.72266112121404,150.6741433050405,-0.0019602378833626605,0.02261451197325879,0.389263124253594,-0.0005,0.00675,0.00575
112000000,"[500.0, 500.0, 500.0, 500.0]",-33.7226606614133,150.6741446212234,-0.0019731293078138214,0.022621367123605983,0.3892403336804166,0.006,0.0045000000000000005,0.00625
176000000,"[500.0, 500.0, 500.0, 500.0]",-33.72266016334025,150.6741460465667,-0.0020540288809366776,0.02263272921322459,0.38912677678570223,0.0125,0.00875,0.00875
240000000,"[500.0, 500.0, 500.0, 500.0]",-33.72265970363632,150.67414736219294,-0.0020659582605320396,0.022633316959155957,0.3891116918755946,-0.00375,-0.01175,0.01175
272000000,"[500.0, 500.0, 500.0, 500.0]",-33.72265920572794,150.67414878780593,-0.0021409799613525747,0.022647685098154062,0.38901402460461443,-0.0025,-0.007,0.01025
308000000,"[500.0, 500.0, 500.0, 500.0]",-33.72265874624158,150.67415010441061,-0.0022089632096233686,0.022732527548191876,0.38888747866593953,-0.00275,0.0175,0.024
340000000,"[500.0, 500.0, 500.0, 500.0]",-33.72265824857684,150.67415153170265,-0.0022212349457126765,0.022813216456858142,0.3888284412133247,0.00375,0.0055,0.005
376000000,"[500.0, 500.0, 500.0, 500.0]",-33.72265778923092,150.67415285021514,-0.0022166850215091963,0.02295938810379835,0.3887551159801717,-0.0005,0.0,0.009000000000000001
432000000,"[500.0, 500.0, 500.0, 500.0]",-33.722657291535356,150.67415427968652,-0.0022013824632370507,0.023093923603548273,0.3887040880432207,-0.01175,0.0035,-0.0055
460000000,"[500.0, 500.0, 500.0, 500.0]",-33.72265683195995,150.67415560006293,-0.0021533456644665105,0.023415224668087244,0.38860991106737564,0.009000000000000001,0.017750000000000002,-0.01025
492000000,"[500.0, 500.0, 500.0, 500.0]",-33.722656333844085,150.67415703114372,-0.0020983846726780895,0.023788557873514776,0.3885235449364734,0.00825,0.00575,0.012750000000000001
528000000,"[500.0, 500.0, 500.0, 500.0]",-33.72265587383451,150.67415835245782,-0.002036601714827865,0.024336240899386238,0.38841614501030636,0.0035,-0.00425,0.0
576000000,"[500.0, 500.0, 500.0, 500.0]",-33.72265537537087,150.6741597838548,-0.00201339798142809,0.024651517761460413,0.38835904764522605,-0.01025,0.0165,0.01225
608000000,"[500.0, 500.0, 500.0, 500.0]",-33.722654915307544,150.67416110480247,-0.0019968735409114586,0.025052787623069773,0.38828781359372744,0.0,0.023,0.022
668000000,"[500.0, 500.0, 500.0, 500.0]",-33.72265441719356,150.6741625351641,-0.0019958437805042365,0.025634488819755094,0.38818123371264096,0.010750000000000001,0.02125,0.00675
708000000,"[500.0, 500.0, 500.0, 500.0]",-33.722653957854156,150.6741638546995,-0.002015995555611854,0.02641988888163803,0.38800455517024385,0.00125,0.003,0.0005
768000000,"[500.0, 500.0, 500.0, 500.0]",-33.72265346088305,150.6741652832328,-0.002012345285609367,0.026636491513628745,0.38793433994340004,-0.016,0.00175,-0.0055
832000000,"[500.0, 500.0, 500.0, 500.0]",-33.72265300278344,150.67416660099985,-0.002001141502093025,0.026750516632689486,0.38788536829557796,-0.009000000000000001,0.0,0.0185
868000000,"[500.0, 500.0, 500.0, 500.0]",-33.72265250714718,150.67416802773892,-0.0019782152015099226,0.02684332660817837,0.38782957931591916,-0.00425,0.002,0.018000000000000002
932000000,"[500.0, 500.0, 500.0, 500.0]",-33.72265205009063,150.67416934412117,-0.001923520813171864,0.026913149231816317,0.3877462160961079,-0.0025,0.00475,0.008
968000000,"[500.0, 500.0, 500.0, 500.0]",-33.72265155523407,150.6741707697817,-0.0018416976974648142,0.02691126633465012,0.38765622337428474,0.02325,-0.01025,0.01225
28000000,"[500.0, 500.0, 500.0, 500.0]",-33.72265109852333,150.67417208561812,-0.0017325645949611591,0.02684390120517917,0.3875525555489743,-0.00275,-0.00275,0.02625
64000000,"[500.0, 500.0, 500.0, 500.0]",-33.72265060367709,150.6741735111787,-0.0016606263380560427,0.02678227315320798,0.3874833808762971,0.004,0.00125,0.0015
120000000,"[500.0, 500.0, 500.0, 500.0]",-33.722650146747135,150.67417482732705,-0.0015834028051630623,0.026712201832893915,0.3874001799145372,0.0135,-0.008,0.0035
156000000,"[500.0, 500.0, 500.0, 500.0]",-33.72264965157622,150.67417625356023,-0.0015158039961239427,0.026661209170576166,0.3873097133941933,0.0095,-0.002,0.00525
256000000,"[500.0, 500.0, 500.0, 500.0]",-33.7226491944071,150.6741775705157,-0.001467477441710593,0.026650098909252264,0.38722586634397765,-0.012750000000000001,-0.0075,0.009000000000000001
264000000,"[500.0, 500.0, 500.0, 500.0]",-33.72264869915631,150.67417899767293,-0.0014237100921026516,0.02668254962021874,0.3871346912021095,0.0165,0.014750000000000001,0.019
328000000,"[500.0, 500.0, 500.0, 500.0]",-33.72264824212159,150.67418031539341,-0.0013704981416413752,0.026772938175775963,0.38702913568241865,0.00175,0.002,0.00725
376000000,"[500.0, 500.0, 500.0, 500.0]",-33.72264774722178,150.67418174315605,-0.0012875141050359318,0.02692283450444794,0.38690916609018805,0.004,0.00125,0.0035
416000000,"[500.0, 500.0, 500.0, 500.0]",-33.722647290637546,150.6741830611451,-0.0012363114581082696,0.027001214603765745,0.3868525972878926,-0.0015,0.0055,0.02375
480000000,"[500.0, 500.0, 500.0, 500.0]",-33.72264679627268,150.67418448883518,-0.0011611166270657559,0.027097937978552956,0.38678176501395134,-0.00125,0.007,0.01025
516000000,"[500.0, 500.0, 500.0, 500.0]",-33.722646340155165,150.67418580642052,-0.0010755070577944312,0.02718612864668999,0.3867107553141705,-0.00525,0.008,0.0055
576000000,"[500.0, 500.0, 500.0, 500.0]",-33.72264584622373,150.67418723335226,-0.0009359560956909541,0.027287592728742358,0.3866037651987195,0.00025,0.00625,0.015
612000000,"[500.0, 500.0, 500.0, 500.0]",-33.72264539044091,150.67418855001372,-0.00082385596992317,0.027331278743672978,0.38651761217723196,-0.0225,-0.01,0.011
668000000,"[500.0, 500.0, 500.0, 500.0]",-33.72264489683942,150.67418997580592,-0.0007106430127838425,0.027332810708853815,0.38642356435825836,0.00825,0.001,0.013000000000000001
708000000,"[500.0, 500.0, 500.0, 500.0]",-33.722644441380865,150.67419129138884,-0.0005489903698418522,0.027216821125927076,0.38626242879656153,0.02,-0.0032500000000000003,0.01725
792000000,"[500.0, 500.0, 500.0, 500.0]",-33.72264394819971,150.67419271608964,-0.0005295775566504791,0.027189442813580725,0.38624025266323353,0.010750000000000001,0.01725,0.018000000000000002
828000000,"[500.0, 500.0, 500.0, 500.0]",-33.72264349321008,150.67419403081394,-0.00043707727445519074,0.027013827008426878,0.3861286417618953,0.006,-0.012,0.00525
892000000,"[500.0, 500.0, 500.0, 500.0]",-33.72264300060504,150.67419545480413,-0.00036240208505982155,0.026831813965865203,0.3860384964493845,-0.00575,-0.005,0.009000000000000001
924000000,"[500.0, 500.0, 500.0, 500.0]",-33.7226425461609,150.67419676909898,-0.0002730680809405255,0.02660177617872699,0.385940001772514,-0.00375,0.0005,0.014
988000000,"[500.0, 500.0, 500.0, 500.0]",-33.72264205408794,150.6741981928651,-0.00017855516983008576,0.02636830412538776,0.38584830586223734,0.009000000000000001,-0.017,-0.00075
20000000,"[500.0, 500.0, 500.0, 500.0]",-33.72264160001791,150.67419950714861,5.065797984665958e-06,0.025959929495796067,0.38569370638835454,0.01225,0.0055,0.0022500000000000003
88000000,"[500.0, 500.0, 500.0, 500.0]",-33.72264110818017,150.67420093106495,8.475027767829132e-05,0.02579749853384751,0.385631183969119,0.00525,0.007,0.01225
136000000,"[500.0, 500.0, 500.0, 500.0]",-33.72264065416845,150.6742022455825,0.00025551379571920246,0.025467055498489637,0.38549686501372893,-0.00475,0.0095,-0.00375
188000000,"[500.0, 500.0, 500.0, 500.0]",-33.72264016226364,150.67420366979118,0.00033284312434594726,0.02532121200573785,0.3854329155524843,0.011,0.002,0.00275
252000000,"[500.0, 500.0, 500.0, 500.0]",-33.72263970813747,150.67420498455817,0.0004240840401944099,0.025148508536046388,0.3853522711376503,-0.0105,-0.00725,0.0195
268000000,"[500.0, 500.0, 500.0, 500.0]",-33.72263921614035,150.6742064089597,0.0005476130799516379,0.02490715813009664,0.38522978387509565,0.00525,0.002,0.0055
304000000,"[500.0, 500.0, 500.0, 500.0]",-33.722638762028744,150.67420772379387,0.0006711786048955274,0.024648371887764812,0.3850887396299766,0.02425,-0.0015,0.01525
360000000,"[500.0, 500.0, 500.0, 500.0]",-33.72263827020329,150.67420914811873,0.0007056272042636033,0.02457243927346582,0.3850468109396562,0.01725,-0.01225,-0.00425
416000000,"[500.0, 500.0, 500.0, 500.0]",-33.722637816399576,150.67421046273313,0.0009037349380020876,0.024111890056589803,0.384808367970923,0.0175,-0.00575,-0.00425
484000000,"[500.0, 500.0, 500.0, 500.0]",-33.722637325034775,150.67421188666455,0.0009190068073062295,0.02407513767789329,0.38479110206144707,0.00775,0.0125,-0.003
516000000,"[500.0, 500.0, 500.0, 500.0]",-33.722636871716155,150.6742132007945,0.0009581065159177161,0.023980251126184134,0.3847478004596949,0.007,0.021500000000000002,-0.006
604000000,"[500.0, 500.0, 500.0, 500.0]",-33.72263638086772,150.67421462411107,0.0011092271054510565,0.023599314706600164,0.38459026278301317,0.004,-0.01525,-0.0045000000000000005
616000000,"[500.0, 500.0, 500.0, 500.0]",-33.722635927959686,150.67421593763854,0.0011712955588863664,0.023433564701082932,0.3845282780568976,-0.0135,-0.01875,0.00575
704000000,"[500.0, 500.0, 500.0, 500.0]",-33.722635437445966,150.67421736032423,0.0012610460985045648,0.02317991163055022,0.38443899688569566,0.022,-0.01325,0.00175
716000000,"[500.0, 500.0, 500.0, 500.0]",-33.72263498624777,150.67421867211712,0.0014590912717522499,0.02253107034228772,0.38423021628003806,0.004,-0.0022500000000000003,0.0022500000000000003
784000000,"[500.0, 500.0, 500.0, 500.0]",-33.722634561843904,150.6742200545277,0.0014750879856919377,0.022471175695231903,0.38421182704398993,0.00075,-0.01175,-0.01
812000000,"[-500.0, 500.0, -500.0, 500.0]",-33.72263420110275,150.674221316804,0.0019125712701465352,0.022705404422560607,0.3867996329516778,0.0015,0.03875,0.152
880000000,"[500.0, 500.0, 500.0, 500.0]",-33.72263380172461,150.67422268885068,0.002250954616461033,0.02469817339538749,0.39969813053320397,-0.01,0.0245,0.23450000000000001
908000000,"[500.0, 500.0, 500.0, 500.0]",-33.72263342705725,150.67422395712285,0.0022505143919344414,0.02531171613489204,0.4055979609768302,-0.0185,0.01125,0.213
980000000,"[500.0, 500.0, 500.0, 500.0]",-33.722633016089176,150.6742253319094,0.0021518139823605165,0.02575040538153566,0.4160313479287643,0.0045000000000000005,0.016,0.20925
8000000,"[500.0, 500.0, 500.0, 500.0]",-33.72263263277793,150.67422660203655,0.0020296474027281654,0.025462085062380527,0.4236198988682963,-0.005,-0.00375,0.2025
80000000,"[500.0, 500.0, 500.0, 500.0]",-33.722632213350664,150.674227980506,0.0018510854752103634,0.023876947720728393,0.43571193076161274,0.01825,-0.04025,0.1765
104000000,"[500.0, 500.0, 500.0, 500.0]",-33.72263182185552,150.67422925675484,0.0018314716717517498,0.021671466043907378,0.4455996317441263,-0.008,-0.051500000000000004,0.164
168000000,"[500.0, 500.0, 500.0, 500.0]",-33.72263139205914,150.67423064501543,0.0019156963535737763,0.020002896661733195,0.45181450123847977,-0.004,-0.037,0.15325
204000000,"[500.0, 500.0, 500.0, 500.0]",-33.7226309890431,150.67423193262653,0.002034087751282698,0.018657491032284538,0.456581741000406,-0.014750000000000001,-0.03925,0.15325
264000000,"[500.0, 500.0, 500.0, 500.0]",-33.72263054461297,150.67423333455935,0.002332484823137671,0.01632738409389384,0.46505759474745434,-0.014750000000000001,-0.0205,0.1395
312000000,"[500.0, 500.0, 500.0, 500.0]",-33.72263012656364,150.6742346349169,0.0025406721358296547,0.015035946703996205,0.47039156741695104,-0.001,-0.033,0.12775
372000000,"[500.0, 500.0, 500.0, 500.0]",-33.72262966509753,150.67423604973314,0.002781648900450345,0.013627695983341119,0.47794943858976885,-0.00475,-0.025500000000000002,0.12275
404000000,"[500.0, 500.0, 500.0, 500.0]",-33.722629231577734,150.67423736048315,0.0028586445094828136,0.013068083379806654,0.4827098966579273,-0.00425,-0.010750000000000001,0.13125
464000000,"[500.0, 500.0, 500.0, 500.0]",-33.72262875458535,150.67423878455497,0.0028282034014357636,0.012767195366162618,0.4894610954907125,-0.0035,0.012750000000000001,0.1205
528000000,"[500.0, 500.0, 500.0, 500.0]",-33.72262830847438,150.67424010186767,0.002698721200939217,0.012921986189385955,0.4945460615796865,-0.001,0.008,0.12
568000000,"[500.0, 500.0, 500.0, 500.0]",-33.72262782000868,150.67424153085244,0.0024747088465414844,0.013473293756052886,0.5005343550927468,-0.00675,0.027,0.11625
604000000,"[500.0, 500.0, 500.0, 500.0]",-33.72262736520905,150.67424285062174,0.0022969368320612396,0.014141519893378125,0.5054150259808142,-0.00625,0.02675,0.10825
672000000,"[500.0, 500.0, 500.0, 500.0]",-33.72262686898327,150.67424427991554,0.002195454243371299,0.014807155093968493,0.5096818788974055,0.0105,0.02425,0.11275
716000000,"[500.0, 500.0, 500.0, 500.0]",-33.72262640804085,150.67424559770913,0.002172524890383027,0.015231804779167989,0.5124059987919857,-0.00575,-0.001,0.089
772000000,"[500.0, 500.0, 500.0, 500.0]",-33.72262590570849,150.67424702241863,0.002235385473527361,0.01596206402041406,0.5178932274997866,0.00925,0.0235,0.0845
804000000,"[500.0, 500.0, 500.0, 500.0]",-33.72262543925026,150.6742483339311,0.0023003425657282944,0.016180472962441454,0.5203407148439346,0.01575,0.025750000000000002,0.078
868000000,"[500.0, 500.0, 500.0, 500.0]",-33.72262493083215,150.67424975014907,0.0024419503630753224,0.01628624870000127,0.5252731603174755,-0.0055,0.006,0.0785
904000000,"[500.0, 500.0, 500.0, 500.0]",-33.722624458591454,150.67425105301513,0.002493569323169785,0.015921030593708824,0.5293398806466844,-0.00275,-0.010750000000000001,0.059250000000000004
964000000,"[500.0, 500.0, 500.0, 500.0]",-33.72262394375969,150.67425246002236,0.0024725946055038457,0.015548267326517219,0.5314058377627152,-0.014,-0.01825,0.058750000000000004
4000000,"[500.0, 500.0, 500.0, 500.0]",-33.7226234654968,150.6742537554768,0.0023947861144436107,0.014923778366680322,0.5338925479333053,-0.0022500000000000003,-0.0175,0.069
64000000,"[500.0, 500.0, 500.0, 500.0]",-33.72262294400672,150.67425515650837,0.0020694371993053417,0.013092134091440567,0.5390114659500381,0.009000000000000001,-0.01175,0.0685
464000000,"[500.0, 500.0, 500.0, 500.0]",-33.72261985302203,150.6742632480926,0.0014204997117268107,0.009281665395785227,0.5580058288504595,-0.0015,-0.005,0.04275
496000000,"[500.0, 500.0, 500.0, 500.0]",-33.722619343288265,150.67426454596404,0.001395156584388324,0.009394779789853694,0.5584397432554489,-0.018000000000000002,-0.00025,0.04775
564000000,"[500.0, 500.0, 500.0, 500.0]",-33.72261878657426,150.67426595123024,0.0013444899772965507,0.009589019715693571,0.5591515885127453,-0.005,0.017,0.04675
596000000,"[500.0, 500.0, 500.0, 500.0]",-33.7226182690536,150.6742672468151,0.001184201185822943,0.01005154531175415,0.5608038318827326,-0.003,0.0145,0.03225
640000000,"[500.0, 500.0, 500.0, 500.0]",-33.72261770517498,150.6742686478559,0.0010543662195295006,0.010327747813152176,0.561862824716295,-0.00675,0.0045000000000000005,0.03325
672000000,"[500.0, 500.0, 500.0, 500.0]",-33.72261718231229,150.67426993833794,0.0007925454799451748,0.010706101560660534,0.56376135948495,-0.00725,-0.00125,0.02425
696000000,"[500.0, 500.0, 500.0, 500.0]",-33.722616613879424,150.67427133310636,0.0006751602855899155,0.010802650969895184,0.5646101479874458,0.00825,0.01025,0.042
728000000,"[500.0, 500.0, 500.0, 500.0]",-33.72261608762242,150.674272617593,0.0004075361821512979,0.010768376518819579,0.5669125541032612,-0.01325,-0.0035,0.046
760000000,"[500.0, 500.0, 500.0, 500.0]",-33.72261551588873,150.67427400606968,0.0003370569155742853,0.010634117823804957,0.5677851023860485,0.014,0.010750000000000001,0.03025
804000000,"[500.0, 500.0, 500.0, 500.0]",-33.72261498646236,150.6742752851882,0.0002768330002249601,0.010387849709601958,0.5688388995285792,0.00725,-0.014,0.02225
868000000,"[500.0, 500.0, 500.0, 500.0]",-33.722614410734074,150.6742766684681,0.0002488460583362891,0.010175004116638232,0.5695529822506451,0.0,0.003,0.03175
924000000,"[500.0, 500.0, 500.0, 500.0]",-33.72261387687904,150.6742779434013,0.00022496159889707297,0.009903708823504461,0.5703460956956931,-0.0095,-0.01,0.04425
960000000,"[500.0, 500.0, 500.0, 500.0]",-33.7226132955164,150.67427932280916,0.00017048096646819593,0.009286827210333975,0.5719534718167008,-0.021,-0.02125,0.01175
8000000,"[500.0, 500.0, 500.0, 500.0]",-33.72261275583261,150.67428059477294,0.00012861586950061734,0.009004377680706718,0.5726747767755385,0.0,-0.011,0.02875
56000000,"[500.0, 500.0, 500.0, 500.0]",-33.72261216776249,150.67428197162013,7.812709288274499e-05,0.008773368678634406,0.573288274838435,0.01525,-0.00375,0.028
104000000,"[500.0, 500.0, 500.0, 500.0]",-33.72261162181643,150.67428324182123,-7.860501785607626e-05,0.008357034744107487,0.574549712242056,-0.005,-0.00125,0.01975
156000000,"[500.0, 500.0, 500.0, 500.0]",-33.72261102716294,150.67428461736714,-0.00033794124012091097,0.008046866452530369,0.5759728790226772,-0.0095,-0.00525,0.035500000000000004
204000000,"[500.0, 500.0, 500.0, 500.0]",-33.72261047548092,150.67428588682688,-0.0004960295670319645,0.007978309188612058,0.5767233596791383,-0.0135,-0.0175,0.0165
432000000,"[500.0, 500.0, 500.0, 500.0]",-33.72260931835217,150.67428853087958,-0.0011025577563013372,0.009175475823485834,0.580986220444567,-0.001,0.01175,0.044
452000000,"[500.0, 500.0, 500.0, 500.0]",-33.722608712763325,150.67428990513653,-0.0011098084496386103,0.009240695251732205,0.5811021516775924,0.01175,0.021750000000000002,0.01225
504000000,"[500.0, 500.0, 500.0, 500.0]",-33.72260815149913,150.67429117287963,-0.0011207668344970685,0.009339071588651954,0.581274490726869,0.018000000000000002,0.00525,0.03075
552000000,"[500.0, 500.0, 500.0, 500.0]",-33.722607541077174,150.67429254494817,-0.0011613544116124707,0.009665973822700907,0.5818357424040094,-0.0055,0.0145,0.012
608000000,"[500.0, 500.0, 500.0, 500.0]",-33.72260697548689,150.67429380984703,-0.0012149325413580616,0.009978074875952064,0.5823772410246494,-0.00725,0.010750000000000001,0.0125
680000000,"[500.0, 500.0, 500.0, 500.0]",-33.72260636059712,150.67429517801892,-0.0013503551381107808,0.01043169421787267,0.5832545218817409,-0.00525,-0.00925,0.01825
736000000,"[500.0, 500.0, 500.0, 500.0]",-33.72260579116745,150.67429643877043,-0.0015142063834299743,0.01071617033411829,0.5839857441525891,-0.01325,-0.00775,-0.00375
804000000,"[500.0, 500.0, 500.0, 500.0]",-33.7226051724918,150.67429780217944,-0.0017344413058700396,0.010899464411263432,0.5848136123577644,-0.006,-0.012750000000000001,0.02825
864000000,"[-170.59326171875, 170.59326171875, -170.59326171875, 170.59326171875]",-33.722604599910085,150.6742990586101,-0.0018709473361467211,0.010940762447654953,0.5853372495217845,0.012,0.00675,0.023
924000000,"[500.0, 500.0, 500.0, 500.0]",-33.72260397810231,150.67430041774523,-0.0018161066233089494,0.011353851421568724,0.5866298276794495,0.00725,0.033,0.0825
8000000,"[500.0, 500.0, 500.0, 500.0]",-33.72260285060375,150.67430296804662,-0.001794305021854252,0.012876559591485058,0.5902726244129777,-0.017750000000000002,0.02125,0.06925
80000000,"[500.0, 500.0, 500.0, 500.0]",-33.72260231493609,150.67430418185631,-0.0021039392758856247,0.0144750254857906,0.5960353716691976,-0.0015,0.00625,0.065
104000000,"[500.0, 500.0, 500.0, 500.0]",-33.72260172950452,150.67430549812843,-0.002412862466911783,0.014709404382234484,0.6013356937433137,-0.0035,0.00575,0.06975
148000000,"[500.0, 500.0, 500.0, 500.0]",-33.72260118521074,150.6743067136912,-0.002472767652294261,0.014584121896344327,0.6025934696181982,-0.0075,-0.00375,0.05825
172000000,"[500.0, 500.0, 500.0, 500.0]",-33.722600591718745,150.6743080312158,-0.002598090924828459,0.013727805143359162,0.6069128154518977,-0.00925,-0.0165,0.06525
180000000,"[500.0, 500.0, 500.0, 500.0]",-33.72260004021949,150.6743092485597,-0.0026068377969814204,0.013422507817793335,0.6080570668023625,-0.00425,-0.006,0.0675
216000000,"[500.0, 500.0, 500.0, 500.0]",-33.72259943909016,150.6743105693788,-0.0026074222094623263,0.013297236404925064,0.6085082543544841,0.007,-0.02375,0.064
280000000,"[-500.0, 500.0, -500.0, 500.0]",-33.722598945914925,150.6743117841617,-0.002349219941585909,0.012909722485531686,0.6146262408675021,0.019,0.011,0.2155
312000000,"[500.0, 500.0, 500.0, 500.0]",-33.722598445479605,150.67431309753417,-0.0020812911487159197,0.014019546566508185,0.6263133257039425,-0.0115,0.022,0.32075
344000000,"[500.0, 500.0, 500.0, 500.0]",-33.722597967612806,150.67431431472752,-0.0021381305938038947,0.01528582746011614,0.6415286016591931,-0.007,0.01,0.293
396000000,"[500.0, 500.0, 500.0, 500.0]",-33.7225974350598,150.67431563659076,-0.002229767069365274,0.015759846892321776,0.6493104096376802,-0.006,0.015,0.293
412000000,"[500.0, 500.0, 500.0, 500.0]",-33.72259693124628,150.6743168587917,-0.0024818364560184503,0.016238187416349057,0.6630509162793105,-0.00725,0.0225,0.25125000000000003
508000000,"[500.0, 500.0, 500.0, 500.0]",-33.7225963733628,150.6743181849526,-0.002593642686024073,0.016289699179611008,0.6681021083168694,0.001,0.01225,0.2615
544000000,"[500.0, 500.0, 500.0, 500.0]",-33.72259584774214,150.67431941151065,-0.0029427268894499374,0.016016067264621913,0.6843731308735269,-0.01,-0.03325,0.23900000000000002
576000000,"[500.0, 500.0, 500.0, 500.0]",-33.722595266771876,150.6743207435239,-0.0030688059756008275,0.015633249086356042,0.6933334750128834,-0.00275,-0.0045000000000000005,0.23675000000000002
608000000,"[500.0, 500.0, 500.0, 500.0]",-33.72259471944637,150.6743219763833,-0.003103467881264579,0.01527860116935021,0.7001981417417654,-0.01225,-0.01,0.21725
684000000,"[500.0, 500.0, 500.0, 500.0]",-33.722594113934925,150.6743233153852,-0.0029649596644355796,0.014591583283775479,0.7139484738445894,-0.006,-0.008,0.1975
904000000,"[0.0, 0.0, 0.0, 0.0]",-33.72259232347591,150.67432712829057,-0.0012065429051723025,0.021562558724102277,0.7632740440658199,0.0,0.07675,0.13875
944000000,"[0.0, 0.0, 0.0, 0.0]",-33.722591722423296,150.6743284043262,-0.0011756725303232608,0.022752360439047044,0.7649234929595615,0.00175,0.10250000000000001,0.16375
4000000,"[0.0, 0.0, 0.0, 0.0]",-33.72259120090391,150.6743295223655,-0.0011629861575799736,0.023577350492093647,0.7660112067966456,-0.0025,0.10350000000000001,0.1525
48000000,"[0.0, 0.0, 0.0, 0.0]",-33.722590670786886,150.67433067097178,-0.0012206394255953094,0.0293116695314395,0.7728560247385533,-0.00525,0.11425,0.1335
104000000,"[0.0, 0.0, 0.0, 0.0]",-33.72259021428997,150.67433167448587,-0.001390082094527328,0.033771355974140486,0.7778666971574022,0.0055,0.1005,0.1315
136000000,"[217.6361083984375, -217.6361083984375, 217.6361083984375, -217.6361083984375]",-33.72258975512965,150.67433269932417,-0.0016482927816891747,0.03862028770699951,0.7835687933422779,-0.0115,0.08675000000000001,0.12725
204000000,"[499.9847412109375, -499.9847412109375, 499.9847412109375, -499.9847412109375]",-33.722589341364674,150.67433356096032,-0.0022240853872117355,0.04387908643815067,0.7825294889703142,0.001,0.0625,-0.1635
272000000,"[499.9847412109375, -499.9847412109375, 499.9847412109375, -499.9847412109375]",-33.72258887408519,150.67433437025278,-0.002976627035053551,0.04581153001650044,0.7631351152484231,0.00275,0.0155,-0.46875
336000000,"[499.9847412109375, -499.9847412109375, 499.9847412109375, -499.9847412109375]",-33.722588424460675,150.67433501018616,-0.003613604348692414,0.045389284307461336,0.7276396073994333,0.02525,-0.01675,-0.69725
404000000,"[0.0, 0.0, 0.0, 0.0]",-33.722587917149646,150.67433560204591,-0.00365894403551552,0.0424562046752776,0.672671034834897,0.057,-0.035250000000000004,-0.80675
412000000,"[0.0, 0.0, 0.0, 0.0]",-33.72258743991644,150.6743360808912,-0.00340346225579777,0.04122944362659476,0.6567501227593364,0.03875,-0.051250000000000004,-0.7625000000000001
448000000,"[0.0, 0.0, 0.0, 0.0]",-33.722586959401546,150.67433658406975,-0.002760613875878163,0.03904807093215656,0.6324425681279355,0.0485,-0.064,-0.732
500000000,"[500.0, 500.0, 500.0, 500.0]",-33.72258654437319,150.67433703998185,-0.0017111132247646925,0.03609914224991649,0.6039226741620212,0.07075000000000001,-0.088,-0.667
540000000,"[500.0, 500.0, 500.0, 500.0]",-33.72258608299618,150.67433758012638,-0.0008823739050741803,0.03222099770491393,0.5772916424630278,0.03675,-0.11625,-0.648
604000000,"[500.0, 500.0, 500.0, 500.0]",-33.72258563460581,150.67433814072334,0.0003550426921268434,0.021865629218144767,0.5290209371155074,0.010750000000000001,-0.13325,-0.55075
660000000,"[500.0, 500.0, 500.0, 500.0]",-33.72258512125047,150.67433881714487,0.0004285527424134705,0.013871967126076414,0.4966321006636588,-0.0005,-0.12975,-0.5035000000000001
704000000,"[500.0, 500.0, 500.0, 500.0]",-33.72258462066984,150.67433950851753,-3.911806447588485e-06,0.009353715905689305,0.4766356967221083,0.0045000000000000005,-0.10225000000000001,-0.4815
760000000,"[500.0, 500.0, 500.0, 500.0]",-33.72258405067678,150.67434033365728,-0.001199672321483379,0.004721884377226096,0.44879030703901807,-0.014750000000000001,-0.0375,-0.4365
812000000,"[500.0, 500.0, 500.0, 500.0]",-33.722583502423234,150.67434116753986,-0.0018690076936734431,0.0036325334616114945,0.43660722347442843,-0.00175,-0.04075,-0.40075
864000000,"[-500.0, 500.0, -500.0, 500.0]",-33.722582906207734,150.67434214327668,-0.002614243405689417,0.0032978475751531855,0.4233511607237091,-0.027,0.006,-0.36825
908000000,"[-500.0, 500.0, -500.0, 500.0]",-33.7225824353256,150.67434307611794,-0.0033915652627337176,0.007980631635295108,0.4104132394931327,0.00275,0.126,-0.016
944000000,"[-500.0, 500.0, -500.0, 500.0]",-33.722582021052666,150.67434410779657,-0.0034913915867584465,0.012552235664098603,0.41271417261146237,-0.00375,0.15075,0.14400000000000002
976000000,"[-500.0, 500.0, -500.0, 500.0]",-33.72258172358319,150.67434507199735,-0.0032759410552057624,0.019726401314419474,0.4227302994983186,0.01225,0.1675,0.35175
28000000,"[-500.0, 500.0, -500.0, 500.0]",-33.72258148649337,150.67434611995824,-0.0021278756461128117,0.03200496429149069,0.4516647028112474,0.00925,0.21125,0.609
60000000,"[500.0, 500.0, 500.0, 500.0]",-33.72258129779505,150.67434709337886,-0.0009102008618419819,0.040050939644679644,0.4789617370864128,-0.00375,0.1955,0.718
116000000,"[0.0, 0.0, 0.0, 0.0]",-33.722581070071094,150.67434814410566,-0.00019881656939030735,0.044601590605818864,0.4981490424344752,0.0045000000000000005,0.1505,0.68625
132000000,"[0.0, 0.0, 0.0, 0.0]",-33.72258086638238,150.67434905117108,0.000651721050596468,0.04849261535290573,0.5190042399518645,0.003,0.11575,0.6635
164000000,"[0.0, 0.0, 0.0, 0.0]",-33.72258065582584,150.6743499622954,0.0016552499061982025,0.05225807644335604,0.5435798584207255,-0.0045000000000000005,0.081,0.60575
224000000,"[0.0, 0.0, 0.0, 0.0]",-33.722580473404065,150.67435074088698,0.0023916848453758095,0.05550641183521044,0.5776141284706348,-0.0265,0.047,0.52875
292000000,"[0.0, 0.0, 0.0, 0.0]",-33.722580293118035,150.67435152594174,0.0021420302558478542,0.05571095708705561,0.6086108374076191,-0.05075,-0.0025,0.5005000000000001
340000000,"[499.9847412109375, -499.9847412109375, -499.9847412109375, 499.9847412109375]",-33.72258017807303,150.67435223631082,0.0015745657089126554,0.05425149417577057,0.627763735431243,-0.0235,-0.029750000000000002,0.47675
356000000,"[499.9847412109375, -499.9847412109375, -499.9847412109375, 499.9847412109375]",-33.72258013376949,150.67435302130266,-0.0034567079798972313,0.049580975510135517,0.659153899379135,-0.1445,-0.09575,0.463
432000000,"[499.9847412109375, -499.9847412109375, -499.9847412109375, 499.9847412109375]",-33.72258017906061,150.6743537849228,-0.005143279102219327,0.048522242041437014,0.6647160579931901,-0.154,-0.09925,0.47625
504000000,"[499.9847412109375, -499.9847412109375, -499.9847412109375, 499.9847412109375]",-33.722580331696626,150.67435468246967,-0.018447891120608045,0.040504051659840154,0.7020301468235757,-0.17550000000000002,-0.123,0.46425
888000000,"[500.0, 500.0, 500.0, 500.0]",-33.722582847490145,150.67436160977348,0.0205060890072668,0.027661234507062867,0.9113821773515443,0.07075000000000001,0.0015,0.402
904000000,"[500.0, 500.0, 500.0, 500.0]",-33.722583284605236,150.67436279491776,0.021391872525493738,0.02771121430003461,0.9161388820038359,0.068,0.00375,0.4
952000000,"[500.0, 500.0, 500.0, 500.0]",-33.72258365194125,150.6743640575576,0.02183278958053181,0.02769739326806365,0.919267957228884,0.043750000000000004,0.01125,0.40375
4000000,"[500.0, 500.0, 500.0, 500.0]",-33.72258388145197,150.674365199173,0.0221742756490422,0.027098896048838212,0.9344237336874922,-0.03425,-0.014,0.379
56000000,"[484.2987060546875, -484.2987060546875, 484.2987060546875, -484.2987060546875]",-33.72258401628069,150.67436640639914,0.018255518017361666,0.02519021326914717,0.952976775882133,-0.12475,-0.037,0.36175
380000000,"[500.0, 500.0, 500.0, 500.0]",-33.72258364542206,150.67437122505262,-0.001332532144780121,0.019719581810044875,0.9216091080360559,0.10425,-0.0565,-0.17475000000000002
404000000,"[500.0, 500.0, 500.0, 500.0]",-33.72258342555934,150.6743723165775,-0.00042923009282902686,0.019277946312900744,0.9202052461165277,0.125,-0.049,-0.15925
412000000,"[500.0, 500.0, 500.0, 500.0]",-33.72258318110612,150.67437336335485,0.004552007664032925,0.016992903939202712,0.9134123089017961,0.13975,-0.049,-0.16275
448000000,"[500.0, 500.0, 500.0, 500.0]",-33.72258286140615,150.67437452107797,0.011633900087616727,0.013748126253461456,0.9038759577466169,0.1165,-0.033,-0.13375
504000000,"[500.0, 500.0, 500.0, 500.0]",-33.72258250693191,150.67437559627209,0.014231593880348661,0.01234026380870942,0.8990838403622833,0.085,-0.0395,-0.13775
552000000,"[500.0, 500.0, 500.0, 500.0]",-33.72258205343125,150.67437675730247,0.015561053812120031,0.010675197530680742,0.8906079229381689,-0.0285,-0.01625,-0.12775
604000000,"[500.0, 500.0, 500.0, 500.0]",-33.72258157245788,150.67437782344032,0.013746423866745856,0.010382902104919838,0.8853056374686107,-0.066,-0.01225,-0.1275
644000000,"[500.0, 500.0, 500.0, 500.0]",-33.72258099357724,150.67437897839056,0.00804400861829948,0.011134467814538968,0.8778407282454649,-0.11850000000000001,0.01325,-0.11775000000000001
700000000,"[500.0, 500.0, 500.0, 500.0]",-33.72258041966029,150.67438005459852,0.00482256132712669,0.011894116626196558,0.8745474705946107,-0.115,0.04775,-0.1165
720000000,"[-500.0, 500.0, -500.0, 500.0]",-33.72257980623547,150.67438125005438,0.001259508665343579,0.012992947834748218,0.8709255646551279,-0.098,0.03025,-0.098
752000000,"[-500.0, 500.0, -500.0, 500.0]",-33.72257931418319,150.67438239514414,-0.0021249714636494763,0.015239504373624634,0.8702651700294902,-0.07575,0.07925,0.10125
808000000,"[500.0, 500.0, 500.0, 500.0]",-33.72257877724607,150.67438366465828,-0.0035728111821229426,0.017648176942418013,0.8745831184179855,-0.04025,0.0815,0.20500000000000002
920000000,"[500.0, 500.0, 500.0, 500.0]",-33.72257827224984,150.67438485683488,0.00021853578103929623,0.02598524170121385,0.9000683030802056,0.076,0.017750000000000002,0.1655
944000000,"[500.0, 500.0, 500.0, 500.0]",-33.72257771329834,150.6743861578955,0.0029735183808300555,0.02633803533255338,0.9053864128245592,0.089,0.0075,0.17450000000000002
4000000,"[500.0, 500.0, 500.0, 500.0]",-33.722577181085576,150.674387354672,0.007002739630091426,0.02578798165989378,0.9130270100235661,0.0635,-0.02425,0.15325
56000000,"[500.0, 500.0, 500.0, 500.0]",-33.72257657976637,150.6743886339349,0.009104771293697281,0.02479916935269965,0.9179003012406518,0.03825,-0.03775,0.1505
104000000,"[500.0, 500.0, 500.0, 500.0]",-33.72257599681163,150.67438979200804,0.010030520316854535,0.023976539672726803,0.9208586582435101,0.04025,-0.042,0.15825
132000000,"[500.0, 500.0, 500.0, 500.0]",-33.722575333026136,150.6743910212148,0.01072468574119413,0.022617974972322465,0.9248904819712851,0.028,-0.05625,0.14725
148000000,"[500.0, 500.0, 500.0, 500.0]",-33.722574692552456,150.67439213813716,0.010598935878594763,0.020855307147173895,0.9293469787750274,-0.032,-0.05275,0.152
256000000,"[0.0, 0.0, 0.0, 0.0]",-33.722573993704266,150.67439332675804,0.002898246774493455,0.013816958875055817,0.9457278337572581,-0.06975,-0.031,0.12
296000000,"[0.0, 0.0, 0.0, 0.0]",-33.72257338681351,150.6743943806303,0.001475614390344678,0.013475180048405247,0.9481023999222777,-0.075,-0.00975,0.12725
340000000,"[0.0, 0.0, 0.0, 0.0]",-33.72257277273243,150.67439548495665,-0.0028842305049776333,0.01636893885915451,0.958452491255163,-0.02225,0.063,0.11075
372000000,"[-468.6279296875, 468.6279296875, 468.6279296875, -468.6279296875]",-33.72257224124095,150.67439646447198,-0.0031168341303423716,0.017715811891411547,0.9605841518546839,-0.0075,0.08425,0.10675
448000000,"[-500.0, 500.0, 500.0, -500.0]",-33.72257167364282,150.6743974317933,-0.0009906465884485076,0.02069412788576492,0.964148670096753,0.08475,0.06,0.064
496000000,"[-500.0, 500.0, 500.0, -500.0]",-33.72257114344978,150.67439821454343,-7.564564579837774e-05,0.02132991637721719,0.9647142172153126,0.11775000000000001,0.08600000000000001,0.09225
544000000,"[0.0, 0.0, 0.0, 0.0]",-33.72257054559402,150.6743989136717,0.023773164324769978,0.030462136369754797,0.9674839575807731,0.20500000000000002,0.054,-0.01575
604000000,"[0.0, 0.0, 0.0, 0.0]",-33.72256997815279,150.67439943600598,0.02606214248112486,0.031219131518119732,0.9672240567857464,0.18825,0.05075,-0.01225
660000000,"[0.0, 0.0, 0.0, 0.0]",-33.722569354480456,150.6743998821897,0.027069170180275142,0.03510117939855281,0.9652927537994958,-0.1385,0.02875,-0.015
696000000,"[0.0, 0.0, 0.0, 0.0]",-33.722568778709785,150.67440020084382,0.025109466752908077,0.03534577027789157,0.96502200341031,-0.17550000000000002,0.018000000000000002,-0.00625
740000000,"[0.0, 0.0, 0.0, 0.0]",-33.72256817547041,150.67440048545944,0.0041068284809855984,0.0350141738233556,0.9632065459240373,-0.3145,-0.04,-0.0185
800000000,"[0.0, 0.0, 0.0, 0.0]",-33.72256765828071,150.67440073499634,0.0016676837604635945,0.03479371599937146,0.9630286847372854,-0.281,-0.0275,-0.00925
832000000,"[0.0, 0.0, 0.0, 0.0]",-33.72256715782113,150.67440103087142,-0.0219789146480334,0.029684173180079633,0.9609930715120257,-0.13075,-0.0665,-0.00475
900000000,"[0.0, 0.0, 0.0, 0.0]",-33.72256675657602,150.67440134772903,-0.023263924914769224,0.0288515813508201,0.9607772733376009,-0.09025,-0.07100000000000001,-0.0105
964000000,"[0.0, 0.0, 0.0, 0.0]",-33.72256638176486,150.67440173957172,-0.01979004231954012,0.022208054962274633,0.9593575033069427,0.16825,-0.0745,0.004
932000000,"[0.0, 0.0, 0.0, 0.0]",-33.722566075466325,150.67440212864628,-0.01776735991775695,0.021292901781722686,0.9591802759666208,0.17325000000000002,-0.074,0.00175
0,"[0.0, 0.0, 0.0, 0.0]",-33.722565762566745,150.6744025482878,-0.013829789285530154,0.01979654986483942,0.9588901687173275,0.20450000000000002,-0.06,-0.0045000000000000005
96000000,"[500.0, 500.0, 500.0, 500.0]",-33.7225654669439,150.67440290700358,0.013121701404346386,0.012199912570348716,0.9571160354418123,0.12825,-0.0765,-0.0095
108000000,"[500.0, 500.0, 500.0, 500.0]",-33.72256507329845,150.6744032809325,0.012027714742226248,0.012589201163207931,0.9572244238372606,0.15225,-0.035,-0.00475
136000000,"[500.0, 500.0, 500.0, 500.0]",-33.72256462458579,150.67440362100538,0.01609549482786988,0.010340967945336246,0.9566790079665052,0.077,-0.0805,0.003
176000000,"[500.0, 500.0, 500.0, 500.0]",-33.722564051395615,150.67440399363926,0.016404990441909278,0.007520152354556317,0.9561268996869634,-0.037,-0.0685,-0.00925
300000000,"[500.0, 500.0, 500.0, 500.0]",-33.72256345483454,150.67440436312967,-0.0010257329603407966,-0.001128983115385488,0.9545362338452693,-0.20175,-0.051250000000000004,-0.004
304000000,"[500.0, 500.0, 500.0, 500.0]",-33.722562754196794,150.67440481996232,0.0013684221394543363,-0.0004068846216631002,0.954685743035108,-0.18325,-0.04825,-0.0032500000000000003
780000000,"[500.0, 500.0, 500.0, 500.0]",-33.72255635579268,150.67441045837782,-0.0010090680281053769,0.014252327262369083,0.949483409162408,-0.14675,0.034,-0.006500000000000001
792000000,"[500.0, 500.0, 500.0, 500.0]",-33.72255544909589,150.67441115935466,-0.0021055891453068466,0.01442278899892305,0.9494191643049802,-0.13675,0.03275,0.01025
852000000,"[500.0, 500.0, 500.0, 500.0]",-33.72255444627734,150.67441191091484,-0.003753371806617733,0.014648604438980835,0.9493233457682781,-0.13,0.025500000000000002,-0.014
888000000,"[500.0, 500.0, 500.0, 500.0]",-33.7225535144536,150.67441261416513,-0.009822855833276386,0.015203593210605123,0.9489506872146858,-0.1005,0.0055,0.006
952000000,"[0.0, 0.0, 0.0, 0.0]",-33.72255251064231,150.67441340318345,-0.014396015528848592,0.015192809643351946,0.948521939124819,-0.033,-0.007,-0.00175
4000000,"[0.0, 0.0, 0.0, 0.0]",-33.72255162380027,150.67441414551521,-0.01463504707913219,0.015534516642913325,0.9483048252305986,0.01975,0.012750000000000001,0.00175
20000000,"[0.0, 0.0, 0.0, 0.0]",-33.722550736535794,150.67441493335386,-0.013014175598951731,0.01687451599011292,0.9480380353013645,0.06125,0.0575,0.015
56000000,"[0.0, 0.0, 0.0, 0.0]",-33.72254997594579,150.67441563891572,-0.00762642167651298,0.020217231324098337,0.9476558747830838,0.099,0.08025,-0.00375
104000000,"[0.0, 0.0, 0.0, 0.0]",-33.72254920081896,150.67441635955723,-0.0006101359728969367,0.024168343142455403,0.9471433293058122,0.14200000000000002,0.0615,-0.01425
132000000,"[-500.0, 500.0, 500.0, -500.0]",-33.72254849384791,150.6744169253526,0.004051751507858043,0.025900767795857392,0.9462818811483441,0.17375000000000002,0.07125000000000001,-0.03
164000000,"[-500.0, 500.0, 500.0, -500.0]",-33.722547713307584,150.67441739698288,0.011771096093986138,0.028133911869773418,0.9441351688577453,0.20450000000000002,0.05675,-0.06775
204000000,"[-500.0, 500.0, 500.0, -500.0]",-33.72254696361161,150.67441768164156,0.019296367137049297,0.029954750423027615,0.9409364096979586,0.19375,0.02725,-0.089
264000000,"[-500.0, 500.0, 500.0, -500.0]",-33.72254612068504,150.6744178398632,0.024191574853732342,0.03105955963765361,0.9376371372737607,0.14275000000000002,0.0155,-0.1085
308000000,"[0.0, 0.0, 0.0, 0.0]",-33.72254533310891,150.67441788500784,0.02648709558969187,0.032356634242589145,0.9304566009326717,-0.0645,0.01925,-0.11325
364000000,"[0.0, 0.0, 0.0, 0.0]",-33.722544483520814,150.6744178554969,0.025746809764065598,0.03244164461724604,0.9295149926517138,-0.113,0.0005,-0.11425
416000000,"[0.0, 0.0, 0.0, 0.0]",-33.72254372456589,150.674417798961,0.015718762092257824,0.03243647178201191,0.9235238732379529,-0.24625,-0.00575,-0.11325
492000000,"[0.0, 0.0, 0.0, 0.0]",-33.72254295454912,150.67441775471343,-0.014862665273759696,0.030023635122746188,0.9127220358133896,-0.267,-0.04875,-0.09225
520000000,"[0.0, 0.0, 0.0, 0.0]",-33.722542306944646,150.6744177614365,-0.017035727549299516,0.02973345151019431,0.9119048083937337,-0.2745,-0.03175,-0.09875
592000000,"[0.0, 0.0, 0.0, 0.0]",-33.72254167818391,150.67441783468448,-0.029253034125810966,0.026931907141070868,0.9048831104909508,-0.06775,-0.03475,-0.08025
616000000,"[0.0, 0.0, 0.0, 0.0]",-33.72254115110857,150.67441795820767,-0.029656523134979774,0.025881425125102313,0.9023098731215525,0.021500000000000002,-0.03925,-0.09
680000000,"[358.82568359375, 358.82568359375, 358.82568359375, 358.82568359375]",-33.72254056997984,150.67441816794224,-0.019997090005453286,0.02359937816793279,0.8960543622727786,0.2025,-0.02725,-0.07575
712000000,"[500.0, 500.0, 500.0, 500.0]",-33.722539992800534,150.67441841073818,-0.0052537623252993946,0.02033127276739001,0.8912081506886675,0.26575,-0.06875,-0.068
780000000,"[500.0, 500.0, 500.0, 500.0]",-33.72253930031588,150.6744186954926,0.00461479184349872,0.01713729329191228,0.8881156196407372,0.221,-0.08700000000000001,-0.0645
904000000,"[500.0, 500.0, 500.0, 500.0]",-33.722538585558844,150.67441896225458,0.016940235069341524,0.0076753073900982125,0.8801521704337391,-0.00425,-0.0745,-0.06825
944000000,"[500.0, 500.0, 500.0, 500.0]",-33.722537726506694,150.67441925413817,0.012654714060526482,0.004287675019091856,0.8765258689710345,-0.12725,-0.04225,-0.0635
4000000,"[500.0, 500.0, 500.0, 500.0]",-33.7225368648746,150.6744195398078,0.005877902194286902,0.0027354896581865806,0.8738417088430146,-0.17125,-0.04575,-0.054
12000000,"[500.0, 500.0, 500.0, 500.0]",-33.72253587797529,150.67441989248667,0.0018737404078115933,0.0023571479202632705,0.8725344049944141,-0.20600000000000002,-0.0105,-0.058750000000000004
28000000,"[500.0, 500.0, 500.0, 500.0]",-33.72253493949745,150.67442028118228,0.00022616339864696414,0.002283120693847279,0.872017851695275,-0.2015,-0.0035,-0.06375
68000000,"[500.0, 500.0, 500.0, 500.0]",-33.722533945254014,150.67442076062957,-0.011354098195266027,0.0031311162771457267,0.8682553437329359,-0.178,0.03275,-0.05275
104000000,"[0.0, 0.0, 0.0, 0.0]",-33.722533083798375,150.67442122954864,-0.01577285387827691,0.0045797599417958315,0.8663257428493477,-0.0955,0.04575,-0.043500000000000004
252000000,"[-119.6136474609375, 119.6136474609375, 119.6136474609375, -119.6136474609375]",-33.72253221088625,150.67442175613002,-0.01280375863741516,0.021760267079748607,0.859054612212257,0.13075,0.18275,-0.046
232000000,"[0.0, 0.0, 0.0, 0.0]",-33.72253144678357,150.6744222254914,-0.011102567037563621,0.023939712322532353,0.8584178894651993,0.1465,0.18125,-0.03325
352000000,"[-500.0, 500.0, 500.0, -500.0]",-33.722530620065356,150.67442264489702,0.00811012785913854,0.03934537442794685,0.8522981967116174,0.28075,0.17525000000000002,-0.1015
332000000,"[-500.0, 500.0, 500.0, -500.0]",-33.7225298347163,150.6744229096853,0.011442431956706555,0.041224133171248324,0.8511119300899833,0.3075,0.1495,-0.10425
448000000,"[-500.0, 500.0, 500.0, -500.0]",-33.722528938614374,150.67442303222722,0.03231930709695123,0.051816211934388415,0.8396693578487916,0.18075,0.0805,-0.171
424000000,"[-500.0, 500.0, 500.0, -500.0]",-33.72252805820425,150.67442298151423,0.030961220646360168,0.05111782306657467,0.8409100822838278,0.19225,0.0925,-0.14400000000000002
544000000,"[0.0, 0.0, 0.0, 0.0]",-33.7225270714495,150.67442279176473,0.03212007571294065,0.05566571288254758,0.8218233537927813,-0.198,-0.00575,-0.1765
564000000,"[0.0, 0.0, 0.0, 0.0]",-33.72252615544184,150.67442253061867,0.029338466777727022,0.05551295906553338,0.8196502666151084,-0.2245,-0.037,-0.18075
648000000,"[0.0, 0.0, 0.0, 0.0]",-33.72252518929968,150.67442220507243,-0.006218390578340264,0.04926232173191839,0.8023011111926066,-0.36325,-0.10475,-0.16075
640000000,"[0.0, 0.0, 0.0, 0.0]",-33.72252435253078,150.67442191615837,-0.009178157888402007,0.04844098562334586,0.8009861631737194,-0.36625,-0.09975,-0.17300000000000001
736000000,"[0.0, 0.0, 0.0, 0.0]",-33.72252353028871,150.6744216615613,-0.03018203840259715,0.038942916482084325,0.7885391472603883,-0.13525,-0.121,-0.13625
772000000,"[0.0, 0.0, 0.0, 0.0]",-33.72252285701927,150.67442150286385,-0.03147365875258612,0.03744911640458091,0.7867806341590419,-0.0815,-0.13425,-0.14625
852000000,"[0.0, 0.0, 0.0, 0.0]",-33.72252221118567,150.67442141346157,-0.024153584423801614,0.027636166255171343,0.7746196210722507,0.246,-0.097,-0.126
868000000,"[0.0, 0.0, 0.0, 0.0]",-33.72252166738982,150.67442138514605,-0.0212015036628312,0.026563565332009622,0.7730471710968172,0.23925000000000002,-0.08425,-0.12975
936000000,"[0.0, 0.0, 0.0, 0.0]",-33.72252109769321,150.67442137586028,0.0031960845177424874,0.021765743118366352,0.7629827150647792,0.304,-0.0335,-0.12375
916000000,"[0.0, 0.0, 0.0, 0.0]",-33.72252055835644,150.67442135480894,0.005612047678848379,0.021532313931116136,0.7620130419472165,0.29925,-0.00975,-0.12175
40000000,"[500.0, 500.0, 500.0, 500.0]",-33.72251990285581,150.67442133115273,0.019982947457104334,0.021268368103963636,0.7549373842494407,0.1715,0.01575,-0.10275000000000001
8000000,"[500.0, 500.0, 500.0, 500.0]",-33.722519207948395,150.67442133237563,0.021690436828410382,0.021432051276163183,0.7535607082603107,0.133,0.03,-0.1105
132000000,"[500.0, 500.0, 500.0, 500.0]",-33.72251837135476,150.674421368226,0.015023337476713505,0.02132417267955012,0.7403061215190774,-0.2015,-0.021,-0.1075
